{"total_count": 388, "results": [{"number": 253, "name": "00253 - \u00c9TATS-UNIS - CHARLAS", "address": "FACE 74 AV DES ETATS-UNIS (GARAGE RENAULT TOULOUSE)", "position": {"lon": 1.43234, "lat": 43.630519}, "banking": "False", "bonus": "False", "status": "OPEN", "contract_name": "toulouse", "bike_stands": 20, "available_bike_stands": 16, "available_bikes": 3, "last_update": "2024-11-15T13:53:48+00:00"}, {"number": 222, "name": "00222 - ROCHE - LAAS", "address": "15 AV DU COLONEL ROCHE", "position": {"lon": 1.474416, "lat": 43.563894}, "banking": "False", "bonus": "False", "status": "OPEN", "contract_name": "toulouse", "bike_stands": 19, "available_bike_stands": 2, "available_bikes": 14, "last_update": "2024-11-15T09:49:01+00:00"}, {"number": 400, "name": "00400 - SAINT-MARTIN-DU-TOUCH GARE", "address": "4, rue Marie Louise Dissard (sur la contre all\u00e9e face au parking de la halte)", "position": {"lon": 1.372218, "lat": 43.600614}, "banking": "False", "bonus": "False", "status": "OPEN", "contract_name": "toulouse", "bike_stands": 13, "available_bike_stands": 11, "available_bikes": 2, "last_update": "2024-11-15T13:50:34+00:00"}, {"number": 156, "name": "00156 - EMPALOT - M\u00c9TRO", "address": "38 AV JEAN MOULIN FACE DEBOUCHE RUE DE CANNES", "position": {"lon": 1.44184, "lat": 43.579666}, "banking": "True", "bonus": "False", "status": "OPEN", "contract_name": "toulouse", "bike_stands": 18, "available_bike_stands": 5, "available_bikes": 9, "last_update": "2024-11-15T13:59:08+00:00"}, {"number": 373, "name": "00373 - REYNERIE - LIZOP", "address": null, "position": {"lon": 1.400526, "lat": 43.566932}, "banking": "False", "bonus": "False", "status": "OPEN", "contract_name": "toulouse", "bike_stands": 13, "available_bike_stands": 9, "available_bikes": 1, "last_update": "2024-11-15T13:52:10+00:00"}, {"number": 339, "name": "00339 -  GLOIRE - SAVIGNAC", "address": "57, rue Labat de Savignac, 40m apr\u00e8s angle rue de la Gloire", "position": {"lon": 1.463601, "lat": 43.605899}, "banking": "False", "bonus": "False", "status": "OPEN", "contract_name": "toulouse", "bike_stands": 13, "available_bike_stands": 10, "available_bikes": 2, "last_update": "2024-11-15T13:50:49+00:00"}, {"number": 65, "name": "00065 - VERDIER - GRAND ROND", "address": "2 ALL FORAIN FRANCOIS VERDIER", "position": {"lon": 1.452596, "lat": 43.596904}, "banking": "False", "bonus": "False", "status": "OPEN", "contract_name": "toulouse", "bike_stands": 27, "available_bike_stands": 25, "available_bikes": 1, "last_update": "2024-11-15T13:56:42+00:00"}, {"number": 174, "name": "00174 - BOURGES - MAUNOURY - M\u00c9LAT", "address": "41 AV MAURICE BOURGES MAUNOURY", "position": {"lon": 1.452615, "lat": 43.63694}, "banking": "False", "bonus": "False", "status": "OPEN", "contract_name": "toulouse", "bike_stands": 19, "available_bike_stands": 9, "available_bikes": 10, "last_update": "2024-11-15T13:55:21+00:00"}, {"number": 295, "name": "00295 - PLACE GUY HERSANT", "address": "Place Guy Hersant, angle rue Alfred Rambaud", "position": {"lon": 1.442964, "lat": 43.577461}, "banking": "False", "bonus": "False", "status": "OPEN", "contract_name": "toulouse", "bike_stands": 13, "available_bike_stands": 9, "available_bikes": 4, "last_update": "2024-11-15T13:57:03+00:00"}, {"number": 371, "name": "00371 - REYNERIE - LONDRES", "address": "9, rue de Londres", "position": {"lon": 1.408256, "lat": 43.569148}, "banking": "False", "bonus": "False", "status": "OPEN", "contract_name": "toulouse", "bike_stands": 13, "available_bike_stands": 7, "available_bikes": 5, "last_update": "2024-11-15T13:52:48+00:00"}, {"number": 64, "name": "00064 - PERI - MERCADIER", "address": "30 RUE GABRIEL PERI", "position": {"lon": 1.455005, "lat": 43.606208}, "banking": "False", "bonus": "False", "status": "OPEN", "contract_name": "toulouse", "bike_stands": 24, "available_bike_stands": 21, "available_bikes": 2, "last_update": "2024-11-15T13:57:33+00:00"}, {"number": 3, "name": "00003 - ALSACE - LORRAINE - POMME", "address": "62 RUE DE LA POMME", "position": {"lon": 1.445454, "lat": 43.603302}, "banking": "False", "bonus": "False", "status": "OPEN", "contract_name": "toulouse", "bike_stands": 18, "available_bike_stands": 5, "available_bikes": 12, "last_update": "2024-11-15T13:58:49+00:00"}, {"number": 227, "name": "00227 - UNIV. PAUL SABATIER M\u00c9TRO", "address": "118  RTE DE NARBONNE", "position": {"lon": 1.462928, "lat": 43.561074}, "banking": "False", "bonus": "False", "status": "OPEN", "contract_name": "toulouse", "bike_stands": 32, "available_bike_stands": 27, "available_bikes": 2, "last_update": "2024-11-15T13:59:07+00:00"}, {"number": 379, "name": "00379 - MAFFRE - BASSO CAMBO", "address": "Rue Robert Maffre, face 123, chemin de Basso Cambo", "position": {"lon": 1.384967, "lat": 43.561453}, "banking": "False", "bonus": "False", "status": "OPEN", "contract_name": "toulouse", "bike_stands": 13, "available_bike_stands": 12, "available_bikes": 0, "last_update": "2024-11-15T13:50:08+00:00"}, {"number": 305, "name": "00305 - ZENITH TRAMWAY", "address": "Face 151, avenue de Grande-Bretagne / Massoni\u00e9", "position": {"lon": 1.411617, "lat": 43.601356}, "banking": "False", "bonus": "False", "status": "OPEN", "contract_name": "toulouse", "bike_stands": 13, "available_bike_stands": 7, "available_bikes": 1, "last_update": "2024-11-15T13:57:42+00:00"}, {"number": 225, "name": "00225 - BELIN - ONERA", "address": "4 AV EDOUARD BELIN DEVANT ONERA FACE AU CREPS", "position": {"lon": 1.473463, "lat": 43.570117}, "banking": "False", "bonus": "False", "status": "OPEN", "contract_name": "toulouse", "bike_stands": 20, "available_bike_stands": 7, "available_bikes": 13, "last_update": "2024-11-15T13:58:32+00:00"}, {"number": 381, "name": "00381 - LIFFARD - REGUELONGUE", "address": "Liffard - R\u00e8guelongue", "position": {"lon": 1.37828, "lat": 43.55978}, "banking": "False", "bonus": "False", "status": "OPEN", "contract_name": "toulouse", "bike_stands": 13, "available_bike_stands": 11, "available_bikes": 1, "last_update": "2024-11-15T13:58:20+00:00"}, {"number": 368, "name": "00368 - ROUTE DE SEYSSES - BELLEFONTAINE", "address": "Face 10, all\u00e9e Bellefontaine", "position": {"lon": 1.406829, "lat": 43.562792}, "banking": "False", "bonus": "False", "status": "OPEN", "contract_name": "toulouse", "bike_stands": 13, "available_bike_stands": 10, "available_bikes": 3, "last_update": "2024-11-15T13:59:02+00:00"}, {"number": 1, "name": "00001 - POIDS DE L'HUILE", "address": "12 RUE DU POIDS DE L'HUILE", "position": {"lon": 1.445475, "lat": 43.60419}, "banking": "False", "bonus": "False", "status": "OPEN", "contract_name": "toulouse", "bike_stands": 19, "available_bike_stands": 13, "available_bikes": 5, "last_update": "2024-11-15T13:57:31+00:00"}, {"number": 192, "name": "00192 - RE DE ST - SIMON - PRADO", "address": "355 ROUTE DE SAINT-SIMON", "position": {"lon": 1.409785, "lat": 43.587845}, "banking": "False", "bonus": "False", "status": "OPEN", "contract_name": "toulouse", "bike_stands": 20, "available_bike_stands": 14, "available_bikes": 6, "last_update": "2024-11-15T13:58:51+00:00"}]}